,OBJECTID,PLANT_CODE,PLANT_NAME, ,SITE_ID,AIR_PI,CITY,COUNTY,STATENAME,STREET_ADD,PRIMSOURCE,INSTALL_MW,TOTAL_MW,SOURCE_DES,TECHNICAL,SOURCE,PERIOD,LATITUDE,LONGITUDE,EDC,GRIDSUPPLY,DMR_LINK,GLOBALID,geometry,
1,1,2378,B L England,RC Cape May Holdings LLC,267113,73242,Beesley's Point,Cape May,New Jersey,900 North Shore Road,Petroleum,339.6,298,"Coal = 150 MW, Petroleum = 148 MW",Conventional Steam Coal; Petroleum Liquids;,"EIA-860, EIA-860M and EIA-923",201810,39.29069,-74.6345,Atlantic City Electric,Y,https://www13.state.nj.us/DataMiner/SearchSite.aspx?PV=267113,{83B0792B-28BB-43B0-9E8D-08597DC9E33B},c(-8308274.70983655, 4763397.51431717)
2,2,2379,Carlls Corner,Calpine New Jersey Generation LLC,15812,75512,Upper Deerfield Twp,Cumberland,New Jersey,Burlington Road,Natural Gas,83.8,79,Natural Gas = 78.6 MW,Natural Gas Fired Combustion Turbine,"EIA-860, EIA-860M and EIA-923",201810,39.4547,-75.2014,Atlantic City Electric,Y,https://www13.state.nj.us/DataMiner/SearchSite.aspx?PV=15812,{99ED577E-A797-4C67-8D2F-957B9009147F},c(-8371381.75014494, 4787015.46804191)
3,3,2390,Sayreville,NRG REMA LLC,15778,17884,Sayerville,Middlesex,New Jersey,River Road,Natural Gas,212,200,Natural Gas = 200 MW,Natural Gas Fired Combustion Turbine,"EIA-860, EIA-860M and EIA-923",201810,40.47653,-74.35234,Jersey Central Power & Light,Y,https://www13.state.nj.us/DataMiner/SearchSite.aspx?PV=15778,{F4F2FA0B-C28B-4168-A8BD-2843AF70AC9E},c(-8276864.8001005, 4935435.08997856)
4,4,2393,Gilbert,NRG REMA LLC,15852,80002,Milford,Hunterdon,New Jersey,"315 Riegelsville Rd., Rte. 627",Natural Gas,512,444,Natural Gas = 444 MW,Natural Gas Fired Combined Cycle; Natural Gas Fired Combustion Turbine;,"EIA-860, EIA-860M and EIA-923",201810,40.56583,-75.16389,Jersey Central Power & Light,Y,https://www13.state.nj.us/DataMiner/SearchSite.aspx?PV=15852,{28C87D01-DB01-47BA-A6B5-3F7AC9234485},c(-8367206.16216865, 4948512.27979684)
5,5,2398,Bergen Generating Station,PSEG Fossil LLC,38281,2488,Ridgefield,Bergen,New Jersey,Victoria Terrace,Natural Gas,1400.8,1229,Natural Gas = 1229 MW,Natural Gas Fired Combined Cycle,"EIA-860, EIA-860M and EIA-923",201810,40.83964,-74.02465,Public Service Electric & Gas Co.,Y,https://www13.state.nj.us/DataMiner/SearchSite.aspx?PV=38281,{85CB0461-1A40-4457-B634-2BD52D3A8FF5},c(-8240386.50693105, 4988718.51506551)
6,6,2399,PSEG Burlington Generating Station,PSEG Fossil LLC,11015,45979,Burlington,Burlington,New Jersey,West Broad & Devlin Avenues,Natural Gas,242,168,Natural Gas = 168 MW,Natural Gas Fired Combustion Turbine,"EIA-860, EIA-860M and EIA-923",201810,40.07661,-74.87917,Public Service Electric & Gas Co.,Y,https://www13.state.nj.us/DataMiner/SearchSite.aspx?PV=11015,{51561EF1-CB4D-42D6-A556-7BF0783B9776},c(-8335511.26339495, 4877082.46758977)
7,7,2401,PSEG Essex Generating Station,PSEG Fossil LLC,14241,7627,Newark,Essex,New Jersey,155 Raymond Boulevard,Natural Gas,93.6,81,Natural Gas = 81 MW,Natural Gas Fired Combustion Turbine,"EIA-860, EIA-860M and EIA-923",201810,40.7372,-74.12059,Public Service Electric & Gas Co.,Y,https://www13.state.nj.us/DataMiner/SearchSite.aspx?PV=14241,{E6FF517B-3F6E-4423-A119-FF46DB040AA5},c(-8251066.50155284, 4973656.87433764)
8,8,2404,PSEG Kearny Generating Station,PSEG Fossil LLC,15972,12200,Kearny,Hudson,New Jersey,Hackensack Avenue,Natural Gas,605,459,Natural Gas = 459.4 MW,Natural Gas Fired Combustion Turbine,"EIA-860, EIA-860M and EIA-923",201810,40.73728,-74.09646,Public Service Electric & Gas Co.,Y,https://www13.state.nj.us/DataMiner/SearchSite.aspx?PV=15972,{5FCE04DC-3BFC-4821-9C64-E6CBB378A9D9},c(-8248380.36136049, 4973668.62766598)
9,9,2406,PSEG Linden Generating Station,PSEG Fossil LLC,927,41810,Linden,Union,New Jersey,Wood Avenue South,Natural Gas,1740,1566,Natural Gas = 1566.2 MW,Natural Gas Fired Combined Cycle; Natural Gas Fired Combustion Turbine;,"EIA-860, EIA-860M and EIA-923",201810,40.62169,-74.2072,Public Service Electric & Gas Co.,Y,https://www13.state.nj.us/DataMiner/SearchSite.aspx?PV=927,{738ADC61-C244-4BDA-9374-E316A2FBF86C},c(-8260707.88494768, 4956701.35879233)
10,10,2410,PSEG Salem Generating Station,PSEG Nuclear LLC,15647,65500,Hancocks Bridge,Salem,New Jersey,P O Box 236 End of Buttonwood,Nuclear,2381.8,2367,"Nuclear = 2328.2 MW, Petroleum = 38.4 MW",Nuclear; Petroleum Liquids;,"EIA-860, EIA-860M and EIA-923",201810,39.46249,-75.53579,Public Service Electric & Gas Co.,Y,https://www13.state.nj.us/DataMiner/SearchSite.aspx?PV=15647,{40FD1DC3-AFC0-4173-A648-52814DCC8AC2},c(-8408605.88634548, 4788138.63309862)
11,11,2411,PSEG Sewaren Generating Station,PSEG Fossil LLC,4895,18068,Sewaren,Middlesex,New Jersey,751 Cliff Road,Natural Gas,452.2,451,Natural Gas = 450.6 MW,Natural Gas Steam Turbine,"EIA-860, EIA-860M and EIA-923",201810,40.55579,-74.24689,Public Service Electric & Gas Co.,Y,https://www13.state.nj.us/DataMiner/SearchSite.aspx?PV=4895,{F378D40E-EBC2-476E-B84E-AC33A352BD1C},c(-8265126.15650998, 4947041.14581456)
12,12,2434,Howard Down,City of Vineland - (NJ),14595,75507,Vineland,Cumberland,New Jersey,211 N West Ave.,Natural Gas,68.2,55,Natural Gas = 55 MW,Natural Gas Fired Combustion Turbine,"EIA-860, EIA-860M and EIA-923",201810,39.48909,-75.03399,Municipal,Y,https://www13.state.nj.us/DataMiner/SearchSite.aspx?PV=14595,{584DB22B-624B-46A1-84FD-97D5875EF426},c(-8352745.74845778, 4791974.7869624)
13,13,5083,Cumberland (NJ),Calpine New Jersey Generation LLC,15862,75508,Millville,Cumberland,New Jersey,4001 East Main Street,Natural Gas,231.2,183,Natural Gas = 183.1 MW,Natural Gas Fired Combustion Turbine,"EIA-860, EIA-860M and EIA-923",201810,39.3757,-74.9654,Atlantic City Electric,Y,https://www13.state.nj.us/DataMiner/SearchSite.aspx?PV=15862,{B2110059-8B5D-4E3D-A8AB-95D68DDF3D3E},c(-8345110.34148277, 4775632.29451952)
14,14,6118,PSEG Hope Creek Generating Station,PSEG Nuclear LLC,15647,65500,Hancocks Bridge,Salem,New Jersey,P O Box 236 End of Buttonwood,Nuclear,1290.7,1172,Nuclear = 1172 MW,Nuclear,"EIA-860, EIA-860M and EIA-923",201810,39.4666,-75.5377,Public Service Electric & Gas Co.,Y,https://www13.state.nj.us/DataMiner/SearchSite.aspx?PV=15647,{8B942190-D0A0-49E3-A348-1966D4985969},c(-8408818.50674375, 4788731.26594948)
15,15,6522,Yards Creek,Jersey Central Power & Lt Co,428,0,Blairstown,Warren,New Jersey,Mount Vernon Road,Pumped Storage,453,420,Pumped Storage = 420 MW,Hydroelectric Pumped Storage,"EIA-860, EIA-860M and EIA-923",201810,41.00085,-75.03165,Jersey Central Power & Light,Y,https://www13.state.nj.us/DataMiner/SearchSite.aspx?PV=428,{E6C4F703-3823-4046-9D6B-9D19BAAF27C5},c(-8352485.27116172, 5012468.2601342)
16,16,6776,West Station (NJ),City of Vineland - (NJ),14583,75482,Vineland,Cumberland,New Jersey,1185 New Peach Street,Petroleum,27,23,Petroleum = 22.9 MW,Petroleum Liquids,"EIA-860, EIA-860M and EIA-923",201810,39.49119,-75.04859,Municipal,Y,https://www13.state.nj.us/DataMiner/SearchSite.aspx?PV=14583,{C5BF0758-5183-4F9A-876D-FC1FB86A541F},c(-8354371.01355186, 4792277.70347714)
17,17,7138,Forked River,Maxim Power (USA) Inc,14506,78912,Forked River,Ocean,New Jersey,789 South Main Street,Natural Gas,76.8,65,Natural Gas = 65 MW,Natural Gas Fired Combustion Turbine,"EIA-860, EIA-860M and EIA-923",201810,39.81539,-74.2098,Jersey Central Power & Light,Y,https://www13.state.nj.us/DataMiner/SearchSite.aspx?PV=14506,{D2CBDECA-63E8-47F6-AF08-5B21A69BB715},c(-8260997.31037291, 4839152.58073189)
18,18,7288,Sherman Avenue,Calpine New Jersey Generation LLC,15811,75476,Vineland,Cumberland,New Jersey,Orchard Road,Natural Gas,112.8,82,Natural Gas = 82.4 MW,Natural Gas Fired Combustion Turbine,"EIA-860, EIA-860M and EIA-923",201810,39.45089,-75.05801,Municipal,Y,https://www13.state.nj.us/DataMiner/SearchSite.aspx?PV=15811,{505E7AC1-7068-4A41-9F84-1AC37A43D9DF},c(-8355419.64321125, 4786466.18652268)
19,19,8008,Mickleton Station,Calpine New Jersey Generation LLC,15895,55784,Mickleton,Gloucester,New Jersey,Harmony Road,Natural Gas,71.2,65,Natural Gas = 64.9 MW,Natural Gas Fired Combustion Turbine,"EIA-860, EIA-860M and EIA-923",201810,39.8129,-75.24892,Atlantic City Electric,Y,https://www13.state.nj.us/DataMiner/SearchSite.aspx?PV=15895,{53265EB8-B625-4DBF-A840-99696222969C},c(-8376671.65633929, 4838791.71561808)
20,20,10012,Covanta Warren Energy,Covanta Warren Energy Resource Co LP,14556,85455,Oxford,Warren,New Jersey,218 Mt Pisgah ave.,Biomass,13.5,10,Biomass = 10 MW,Municipal Solid Waste,"EIA-860, EIA-860M and EIA-923",201810,40.8205,-75.0112,Jersey Central Power & Light,Y,https://www13.state.nj.us/DataMiner/SearchSite.aspx?PV=14556,{ED6D87FC-15E4-44E9-9625-F17FAC1339F4},c(-8350208.78554039, 4985902.61078866)
21,21,10043,Logan Generating Company LP,US Operating Services Company,15832,55834,Swedesboro,Gloucester,New Jersey,76 Route 130,Coal,242.3,219,Coal = 219 MW,Conventional Steam Coal,"EIA-860, EIA-860M and EIA-923",201810,39.79221,-75.40663,Atlantic City Electric,Y,https://www13.state.nj.us/DataMiner/SearchSite.aspx?PV=15832,{5A514E0A-8200-42FE-8D92-1FBF2986833A},c(-8394227.85859828, 4835793.75050659)
22,22,10061,"Mars Wrigley Confectionery US, LLC","Mars Wrigley Confectionery US, LLC",14492,85443,Hackettstown,Warren,New Jersey,700 High Street,Natural Gas,10.2,11,Natural Gas = 10.7 MW,Natural Gas Fired Combined Cycle,"EIA-860, EIA-860M and EIA-923",201810,40.86304,-74.82431,Jersey Central Power & Light,N,https://www13.state.nj.us/DataMiner/SearchSite.aspx?PV=14492,{9689B656-4BD3-4B6F-B6BF-504304333E45},c(-8329404.27954817, 4992162.25102131)
23,23,10099,Pedricktown Cogeneration Company LP,Pedricktown Cogeneration Company LP,15658,65497,Pedricktown,Salem,New Jersey,143 Highway 130,Natural Gas,134.5,115,Natural Gas = 115.3 MW,Natural Gas Fired Combined Cycle,"EIA-860, EIA-860M and EIA-923",201810,39.7668,-75.4238,Atlantic City Electric,Y,https://www13.state.nj.us/DataMiner/SearchSite.aspx?PV=15658,{9DA9A260-70FC-4F93-A493-CFDBF0F90877},c(-8396139.21477855, 4832113.09540634)
24,24,10122,CIP II/AR Bridgewater Holdings - NJCOE,CIP II/AR Bridgewater Holdings LLC,15703,35832,Bridgewater,Somerset,New Jersey,993 Route 202/206,Natural Gas,5,4,Natural Gas = 4.1 MW,Natural Gas Fired Combustion Turbine,"EIA-860, EIA-860M and EIA-923",201810,40.62406,-74.63447,Jersey Central Power & Light,N,https://www13.state.nj.us/DataMiner/SearchSite.aspx?PV=15703,{AC339034-6AA6-4227-B4B3-A663121517B2},c(-8308271.37907027, 4957048.94987701)
25,25,10123,Hoffmann LaRoche,"PB Nutclif Master, LLC",14243,7167,Nutley,Essex,New Jersey,340 Kingsland Street,Natural Gas,10.6,8,Natural Gas = 8.2 MW,Natural Gas Fired Combustion Turbine,"EIA-860, EIA-860M and EIA-923",201810,40.8359,-74.155,Public Service Electric & Gas Co.,N,https://www13.state.nj.us/DataMiner/SearchSite.aspx?PV=14243,{3180AF33-A11A-4AD7-8741-BFA27B25A60E},c(-8254897.00715494, 4988168.21736594)
26,26,10224,Merck Rahway Power Plant,Merck & Co Inc,14721,41712,Rahway,Union,New Jersey,126 E. Lincoln Ave,Natural Gas,16.3,15,"Natural Gas = 14.8 MW, Solar = 0.5 MW",Natural Gas Steam Turbine; Solar Photovoltaic;,"EIA-860, EIA-860M and EIA-923",201810,40.61562,-74.26529,Public Service Electric & Gas Co.,N,https://www13.state.nj.us/DataMiner/SearchSite.aspx?PV=14721,{31F81678-2F1B-43D3-8ED4-AA0154B3FEFC},c(-8267174.43618764, 4955811.1652701)
27,27,10308,Sayreville Cogeneration Facility,North Jersey Energy Assoc LP,14815,18072,Sayreville,Middlesex,New Jersey,601 Jernee Mill Road,Natural Gas,430.2,292,Natural Gas = 292 MW,Natural Gas Fired Combined Cycle,"EIA-860, EIA-860M and EIA-923",201810,40.439,-74.34439,Jersey Central Power & Light,Y,https://www13.state.nj.us/DataMiner/SearchSite.aspx?PV=14815,{2ED288FE-D2C0-4976-A61F-F0236EFABB15},c(-8275979.80955645, 4929944.34592696)
28,28,10435,Camden Resource Recovery Facility,Covanta Camden Energy Recovery Center,14650,51614,Camden,Camden,New Jersey,600 Morgan Blvd.,Biomass,35,33,Biomass = 33 MW,Municipal Solid Waste,"EIA-860, EIA-860M and EIA-923",201810,39.90954,-75.11634,Public Service Electric & Gas Co.,Y,https://www13.state.nj.us/DataMiner/SearchSite.aspx?PV=14650,{78AD126E-A7FC-4187-B17F-0EF90ED0E526},c(-8361912.91422332, 4852806.74260477)
29,29,10566,Chambers Cogeneration LP,US Operating Services Company,14615,65498,Carneys Point,Salem,New Jersey,500 Shell Rd.,Coal,285,244,Coal = 244 MW,Conventional Steam Coal,"EIA-860, EIA-860M and EIA-923",201810,39.69349,-75.48581,Atlantic City Electric,Y,https://www13.state.nj.us/DataMiner/SearchSite.aspx?PV=14615,{416FA0CF-91FE-4220-8CC6-4FDD24F4DA29},c(-8403042.1380576, 4821501.69939133)
30,30,10643,Covanta Essex Company,Covanta Essex Company,14211,7736,Newark,Essex,New Jersey,183 Raymond Blvd,Biomass,69.8,60,Biomass = 60 MW,Municipal Solid Waste,"EIA-860, EIA-860M and EIA-923",201810,40.73833,-74.12625,Public Service Electric & Gas Co.,Y,https://www13.state.nj.us/DataMiner/SearchSite.aspx?PV=14211,{945FEC33-4403-4AA5-8E30-3F8638D80DEC},c(-8251696.57014035, 4973822.89034845)
31,31,10751,Camden Plant Holding LLC,"Morris Energy Operations Company, LLC",14648,51608,Camden,Camden,New Jersey,570 Chelton Ave,Natural Gas,157,145,Natural Gas = 145 MW,Natural Gas Fired Combined Cycle,"EIA-860, EIA-860M and EIA-923",201810,39.91793,-75.11904,Public Service Electric & Gas Co.,Y,https://www13.state.nj.us/DataMiner/SearchSite.aspx?PV=14648,{2F47258C-3CCD-4315-9B18-87893456A83F},c(-8362213.47696706, 4854024.41795747)
32,32,10805,Kenilworth Energy Facility,E F Kenilworth LLC,440649,41741,Kenilworth,Union,New Jersey,2000 Galloping Hill Rd Bld K14,Natural Gas,28.8,24,Natural Gas = 24.5 MW,Natural Gas Fired Combined Cycle,"EIA-860, EIA-860M and EIA-923",201810,40.67668,-74.27467,Public Service Electric & Gas Co.,Y,https://www13.state.nj.us/DataMiner/SearchSite.aspx?PV=440649,{379723EC-6622-48B5-A52A-7D0056659262},c(-8268218.61380935, 4964769.58243109)
33,33,50006,Linden Cogen Plant,EFS Cogen Holdings I LLC,32509,41809,Linden,Union,New Jersey,RR & Chemico Ave,Natural Gas,974.1,955,Natural Gas = 955 MW,Natural Gas Fired Combined Cycle,"EIA-860, EIA-860M and EIA-923",201810,40.63246,-74.21487,Public Service Electric & Gas Co.,Y,https://www13.state.nj.us/DataMiner/SearchSite.aspx?PV=32509,{AFA946A7-2F30-4BE1-95A8-678825E82717},c(-8261561.70586186, 4958281.02758051)
34,34,50094,Veolia Energy Trenton L.P.,Veolia Energy Trenton L.P,14543,61015,Trenton,Mercer,New Jersey,320 S. Warren St.,Natural Gas,6,6,Natural Gas = 5.8 MW,Natural Gas Internal Combustion Engine,"EIA-860, EIA-860M and EIA-923",201810,40.21665,-74.76455,Public Service Electric & Gas Co.,Y,https://www13.state.nj.us/DataMiner/SearchSite.aspx?PV=14543,{0EB5AB25-1DE1-457C-B813-E95C506F28BC},c(-8322751.82023694, 4897476.57916117)
35,35,50311,Passaic Valley Water Commission,Passaic Valley Water Comm,46767,0,Totowa,Passaic,New Jersey,Union Blvd. & Riverview Drive,Hydroelectric,2.4,2,Hydroelectric = 2.4 MW,Conventional Hydroelectric,"EIA-860, EIA-860M and EIA-923",201810,40.8837,-74.2306,Public Service Electric & Gas Co.,Y,https://www13.state.nj.us/DataMiner/SearchSite.aspx?PV=46767,{F0A79A04-6CFC-4D15-9A49-CE0B6DE93FC6},c(-8263312.76364762, 4995203.76449263)
36,36,50385,Newark Bay Cogeneration Partnership LP,Newark Bay Cogeneration Partnership LP,8717,7617,Newark,Essex,New Jersey,414-462 Avenue P,Natural Gas,139,120,Natural Gas = 120.2 MW,Natural Gas Fired Combined Cycle,"EIA-860, EIA-860M and EIA-923",201810,40.72015,-74.13027,Public Service Electric & Gas Co.,Y,https://www13.state.nj.us/DataMiner/SearchSite.aspx?PV=8717,{BAF3C550-9544-4066-A472-7A1EB8F6C4A3},c(-8252144.07447294, 4971152.28435854)
37,37,50411,Rutgers Biomedical and Health Cogen,"Rutgers, The State University of NJ",93815,8992,Newark,Essex,New Jersey,295 Norfolk Ave.,Natural Gas,10.5,10,Natural Gas = 10.2 MW,Natural Gas Fired Combustion Turbine,"EIA-860, EIA-860M and EIA-923",201810,40.73928,-74.18763,Public Service Electric & Gas Co.,N,https://www13.state.nj.us/DataMiner/SearchSite.aspx?PV=93815,{AF6C28F3-BFC3-4A18-BC60-CF737B538A2C},c(-8258529.36270608, 4973962.46321104)
38,38,50561,Eagle Point Power Generation,Eagle Point Power Generation LLC,15834,56220,Westville,Gloucester,New Jersey,1250 Crown Point Road,Natural Gas,251.8,237,Natural Gas = 236.8 MW,Natural Gas Fired Combined Cycle,"EIA-860, EIA-860M and EIA-923",201810,39.8713,-75.15574,Public Service Electric & Gas Co.,Y,https://www13.state.nj.us/DataMiner/SearchSite.aspx?PV=15834,{D5EC741B-D919-4F87-947C-9895517691EE},c(-8366298.90335006, 4847258.70117747)
39,39,50628,Paulsboro Refinery,Paulsboro Refining Company - LLC,14376,55829,Paulsboro,Gloucester,New Jersey,800 Billingsport Road,Natural Gas,78.5,60,"Natural Gas = 25 MW, Other = 23.4 MW,Petroleum = 11.6 MW",Natural Gas Fired Combustion Turbine; Other Gases; Petroleum Coke,"EIA-860, EIA-860M and EIA-923",201810,39.84119,-75.25651,Atlantic City Electric,N,https://www13.state.nj.us/DataMiner/SearchSite.aspx?PV=14376,{01763C38-C105-4DB8-B5CA-F1003C00C4E0},c(-8377516.57177174, 4842892.37470061)
40,40,50799,Parlin Power Plant,GE Energy Financial Services,14549,18061,Parlin,Middlesex,New Jersey,790 Washington Road,Natural Gas,135,115,Natural Gas = 114.6 MW,Natural Gas Fired Combined Cycle,"EIA-860, EIA-860M and EIA-923",201810,40.46072,-74.32716,Jersey Central Power & Light,Y,https://www13.state.nj.us/DataMiner/SearchSite.aspx?PV=14549,{819CA61C-7697-40AA-87F6-9A0CFFEF50FE},c(-8274061.77433059, 4933121.66899527)
41,41,50852,Elmwood Energy Holdings LLC,"Morris Energy Operations Company, LLC",15980,2624,Elmwood Park,Bergen,New Jersey,15 River Road,Natural Gas,83,70,Natural Gas = 70 MW,Natural Gas Fired Combined Cycle,"EIA-860, EIA-860M and EIA-923",201810,40.90534,-74.13045,Public Service Electric & Gas Co.,Y,https://www13.state.nj.us/DataMiner/SearchSite.aspx?PV=15980,{A1CA39DF-83BD-4592-AFC2-B4714B84D538},c(-8252164.113252, 4998390.56669287)
42,42,50885,Wheelabrator Gloucester LP,Wheelabrator Environmental Systems,15833,55793,Westville,Gloucester,New Jersey,600 US RT 130,Biomass,14,12,Biomass = 12 MW,Municipal Solid Waste,"EIA-860, EIA-860M and EIA-923",201810,39.8733,-75.1381,Public Service Electric & Gas Co.,Y,https://www13.state.nj.us/DataMiner/SearchSite.aspx?PV=15833,{51CAD7E3-18B0-460D-945D-5C328E967384},c(-8364335.22685708, 4847548.79416394)
43,43,50960,Union County Resource Recovery,Covanta Union Operations LLC,14695,41814,Rahway,Union,New Jersey,1499 Route 1 North,Biomass,45,38,Biomass = 37.5 MW,Municipal Solid Waste,"EIA-860, EIA-860M and EIA-923",201810,40.60126,-74.26637,Public Service Electric & Gas Co.,Y,https://www13.state.nj.us/DataMiner/SearchSite.aspx?PV=14695,{A900674B-C051-45F0-BA9A-6616EB2C6416},c(-8267294.66122484, 4953705.52767104)
44,44,52068,Great Falls Hydro Project,Eagle Creek RE LLC,60814,0,Paterson,Passaic,New Jersey,72 McBride Ave,Hydroelectric,12.3,10,Hydroelectric = 9.9 MW,Conventional Hydroelectric,"EIA-860, EIA-860M and EIA-923",201810,40.91532,-74.18099,Public Service Electric & Gas Co.,Y,https://www13.state.nj.us/DataMiner/SearchSite.aspx?PV=60814,{18D03583-B366-4A4B-A15F-B08247C9E06D},c(-8257790.20217831, 4999860.61645547)
45,45,54569,Bayville Central Facility,Ocean County Utilities Auth,14575,78909,Bayville,Ocean,New Jersey,501 Hickory Lane,Petroleum,7.1,7,"Biomass = 0.9 MW, Petroleum = 6 MW,Solar = 0.2 MW",Other Waste Biomass; Petroleum Liquids; Solar Photovoltaic,"EIA-860, EIA-860M and EIA-923",201810,39.90631,-74.17886,Jersey Central Power & Light,N,https://www13.state.nj.us/DataMiner/SearchSite.aspx?PV=14575,{787C5155-E2D3-48DA-8C48-B87635E89EEB},c(-8257553.08483255, 4852338.0038937)
46,46,54640,NAEA Lakewood LLC,Nautilus Power LLC,14574,78896,Lakewood,Ocean,New Jersey,123 Energy Way,Natural Gas,236.8,233,Natural Gas = 233.1 MW,Natural Gas Fired Combined Cycle,"EIA-860, EIA-860M and EIA-923",201810,40.0613,-74.16859,Jersey Central Power & Light,Y,https://www13.state.nj.us/DataMiner/SearchSite.aspx?PV=14574,{00789780-830C-438E-A4D2-75599A4EB236},c(-8256409.83431932, 4874855.41238016)
47,47,54707,Hunterdon Cogen Facility,Hunterdon Cogeneration LP,14566,80293,Clinton,Hunterdon,New Jersey,Route 513 Pittstown Road,Natural Gas,4.1,4,Natural Gas = 4.1 MW,Natural Gas Fired Combustion Turbine,"EIA-860, EIA-860M and EIA-923",201810,40.62782,-74.93597,Jersey Central Power & Light,N,https://www13.state.nj.us/DataMiner/SearchSite.aspx?PV=14566,{120EC0C1-A918-4432-B296-BC1FB1712AF0},c(-8341834.21626608, 4957600.42968808)
48,48,54829,Bristol Myers Squibb New Brunswick,Bristol-Myers Squibb Co,5540,17739,New Brunswick,Middlesex,New Jersey,PO BOX 191  One Squibb Drive,Natural Gas,10.5,9,Natural Gas = 9.4 MW,Natural Gas Steam Turbine; Natural Gas Fired Combustion Turbine;,"EIA-860, EIA-860M and EIA-923",201810,40.47513,-74.44579,Public Service Electric & Gas Co.,N,https://www13.state.nj.us/DataMiner/SearchSite.aspx?PV=5540,{28C8B9D9-7515-43BA-A1BB-28001A767695},c(-8287267.60972384, 4935230.21051398)
49,49,54980,Ocean County Landfill,LES Project Holdings LLC,15805,78931,Manchester,Ocean,New Jersey,2498 Route 70,Biomass,14.4,14,Biomass = 13.8 MW,Landfill Gas,"EIA-860, EIA-860M and EIA-923",201810,40.02463,-74.25017,Jersey Central Power & Light,Y,https://www13.state.nj.us/DataMiner/SearchSite.aspx?PV=15805,{4064A168-5518-448A-AAA6-4F08C63BA629},c(-8265491.28099803, 4869523.26903443)
50,50,55239,Red Oak Power LLC,Red Oak Operating Services LLC,18747,18195,Sayerville,Middlesex,New Jersey,832 Red Oak Lane,Natural Gas,821.1,766,Natural Gas = 765.9 MW,Natural Gas Fired Combined Cycle,"EIA-860, EIA-860M and EIA-923",201810,40.44867,-74.34888,Jersey Central Power & Light,Y,https://www13.state.nj.us/DataMiner/SearchSite.aspx?PV=18747,{A6CB297F-74FF-4F23-BA2E-59F7545E0251},c(-8276479.6343505, 4931358.80074184)
51,51,55618,Monmouth Landfill Gas to Energy,Monmouth Energy Inc,15942,21351,Tinton Falls,Monmouth,New Jersey,6000 Asbury Ave,Biomass,9.8,7,Biomass = 6.6 MW,Landfill Gas,"EIA-860, EIA-860M and EIA-923",201810,40.24683,-74.11742,Jersey Central Power & Light,Y,https://www13.state.nj.us/DataMiner/SearchSite.aspx?PV=15942,{735E5498-7EC2-4C8A-89EA-1FFEE7E5895A},c(-8250713.61546587, 4901877.23046283)
52,52,55938,NAEA Ocean Peaking Power LLC,Nautilus Power LLC,168501,78896,Lakewood,Ocean,New Jersey,123 Energy Way,Natural Gas,383,326,Natural Gas = 325.6 MW,Natural Gas Fired Combustion Turbine,"EIA-860, EIA-860M and EIA-923",201810,40.06329,-74.16719,Jersey Central Power & Light,Y,https://www13.state.nj.us/DataMiner/SearchSite.aspx?PV=168501,{4518ACD0-A539-462E-A1F7-ABA610E31D74},c(-8256253.98703171, 4875144.8580717)
53,53,56119,Middlesex Generating Facility,Middlesex Generating Company LLC,5280,18348,Sayerville,Middlesex,New Jersey,East Main Street Extension,Biomass,22.5,19,Biomass = 18.8 MW,Landfill Gas,"EIA-860, EIA-860M and EIA-923",201810,40.49089,-74.31491,Jersey Central Power & Light,Y,https://www13.state.nj.us/DataMiner/SearchSite.aspx?PV=5280,{82BB95C7-D291-4BEA-A1E6-79163A315773},c(-8272698.11031362, 4937536.81015511)
54,54,56169,NEO Freehold Gen LLC,NEO Freehold Gen LLC,4633,20799,Freehold,Monmouth,New Jersey,235 Willowbrook Road,Natural Gas,2.2,2,Natural Gas = 2.2 MW,Natural Gas Internal Combustion Engine,"EIA-860, EIA-860M and EIA-923",201810,40.24483,-74.25469,Jersey Central Power & Light,N,https://www13.state.nj.us/DataMiner/SearchSite.aspx?PV=4633,{D79C2B16-E7A6-42DA-994C-849704F63880},c(-8265994.44672771, 4901585.54223333)
55,55,56300,Jersey-Atlantic Wind Farm,"Leeward Asset Management, LLC",143132,70508,Atlantic City,Atlantic,New Jersey,1801 Absecon Blvd.,Wind,7.5,8,Wind = 7.5 MW,Onshore Wind Turbine,"EIA-860, EIA-860M and EIA-923",201810,39.38106,-74.44773,Atlantic City Electric,N,https://www13.state.nj.us/DataMiner/SearchSite.aspx?PV=143132,{D2FABD52-0FE3-4AB0-80D8-CB306DB6C50D},c(-8287483.56251145, 4776404.21630323)
56,56,56511,Pennsauken Landfill,EPP Renewable Energy,14673,51612,Pennsauken,Camden,New Jersey,9600 River Road,Biomass,1.8,2,Biomass = 1.8 MW,Landfill Gas,"EIA-860, EIA-860M and EIA-923",201810,39.9894,-75.04,Public Service Electric & Gas Co.,Y,https://www13.state.nj.us/DataMiner/SearchSite.aspx?PV=14673,{2E33F03F-9D4A-407B-A23C-C3D4B40105EA},c(-8353414.78211304, 4864403.20953169)
57,57,56701,Haworth Water Treatment Plant,EPP Renewable Energy,45926,3000,Haworth,Bergen,New Jersey,200 Lakeshore Drive,Natural Gas,16,16,"Natural Gas = 8 MW, Petroleum = 7.8 MW",Natural Gas Internal Combustion Engine; Petroleum Liquids;,"EIA-860, EIA-860M and EIA-923",201810,40.95838,-74.01313,Public Service Electric & Gas Co.,Y,https://www13.state.nj.us/DataMiner/SearchSite.aspx?PV=45926,{DA4B9C21-CA3B-48CA-8C8C-4118275F7FAC},c(-8239104.10684546, 5006205.88424726)
58,58,56884,Cumberland County Solid Waste Complex,EPP Renewable Energy,9475,75697,Millville,Cumberland,New Jersey,169 Jesse Bridge Road,Biomass,4.8,5,Biomass = 4.8 MW,Landfill Gas,"EIA-860, EIA-860M and EIA-923",201810,39.45346,-75.09635,Atlantic City Electric,Y,https://www13.state.nj.us/DataMiner/SearchSite.aspx?PV=9475,{549B9032-7FE8-4273-AC29-7B7EDF65CE57},c(-8359687.63392488, 4786836.69633019)
59,59,56963,West Deptford Energy Station,West Deptford Energy LLC,64901,56078,West Deptford,Gloucester,New Jersey,3 Paradise Road,Natural Gas,754.6,728,Natural Gas = 728 MW,Natural Gas Fired Combined Cycle,"EIA-860, EIA-860M and EIA-923",201810,39.8414,-75.2214,Public Service Electric & Gas Co.,Y,https://www13.state.nj.us/DataMiner/SearchSite.aspx?PV=64901,{95DECF7E-7C12-44AE-A2F9-4EAFE342067D},c(-8373608.1431999, 4842922.82089103)
60,60,56964,Bayonne Energy Center,Bayonne Energy Center LLC,379948,12863,Bayonne,Hudson,New Jersey,401 Hook Rd,Natural Gas,512,473,Natural Gas = 473.2 MW,Natural Gas Fired Combustion Turbine,"EIA-860, EIA-860M and EIA-923",201810,40.65283,-74.09155,Public Service Electric & Gas Co.,Y,https://www13.state.nj.us/DataMiner/SearchSite.aspx?PV=379948,{7CACEC70-48B1-4141-80A7-CEA4CBBEBFAD},c(-8247833.78191058, 4961269.45536985)
61,61,57839,Woodbridge Energy Center,Woodbridge Energy Center,483453,18940,Keasbey,Middlesex,New Jersey,1070 Riverside Dr,Natural Gas,795,720,Natural Gas = 719.6 MW,Natural Gas Fired Combined Cycle,"EIA-860, EIA-860M and EIA-923",201810,40.51554,-74.3192,Public Service Electric & Gas Co.,Y,https://www13.state.nj.us/DataMiner/SearchSite.aspx?PV=483453,{25F47739-8614-44DA-9330-5EE50703EC2E},c(-8273175.67128957, 4941145.61651842)
62,62,57843,SC Landfill Energy LLC,SC Landfill Energy LLC,36888,65582,Alloway,Salem,New Jersey,52 McKillip Road,Biomass,1.9,2,Biomass = 1.8 MW,Landfill Gas,"EIA-860, EIA-860M and EIA-923",201810,39.58601,-75.37239,Atlantic City Electric,Y,https://www13.state.nj.us/DataMiner/SearchSite.aspx?PV=36888,{B378C5C7-6B8D-44BB-820A-C75467C7D62F},c(-8390416.27666212, 4805964.65277097)
63,63,57845,AC Landfill Energy LLC,AC Landfill Energy LLC,15742,70718,Egg Harbor Township,Atlantic,New Jersey,6700 Delilah Road,Biomass,5.4,5,Biomass = 5.1 MW,Landfill Gas,"EIA-860, EIA-860M and EIA-923",201810,39.42282,-74.5421,Atlantic City Electric,Y,https://www13.state.nj.us/DataMiner/SearchSite.aspx?PV=15742,{2440CF67-B189-4857-83EE-404C3D22202E},c(-8297988.78644235, 4782420.30356349)
64,64,57846,SX Landfill Energy LLC,SX Landfill Energy LLC,15800,83590,Lafayette,Sussex,New Jersey,34 South Route 94,Biomass,3.2,3,Biomass = 3 MW,Landfill Gas,"EIA-860, EIA-860M and EIA-923",201810,41.09361,-74.67884,Jersey Central Power & Light,Y,https://www13.state.nj.us/DataMiner/SearchSite.aspx?PV=15800,{2A0F0C4C-4ADE-4164-897D-F2EA8029FB76},c(-8313210.62967353, 5026160.16481277)
65,65,57847,BC Landfill Energy LLC,BC Landfill Energy LLC,37400,45949,Columbus,Burlington,New Jersey,21939 Route 543,Biomass,7.5,7,Biomass = 7 MW,Landfill Gas,"EIA-860, EIA-860M and EIA-923",201810,40.07071,-74.76865,Public Service Electric & Gas Co.,Y,https://www13.state.nj.us/DataMiner/SearchSite.aspx?PV=37400,{3021B47E-81B0-4831-88DF-390333F4D314},c(-8323208.22935959, 4876224.16928312)
66,66,58079,Newark Energy Center,"Newark Energy Center, LLC",552692,8857,Newark,Essex,New Jersey,955 Delancy St.,Natural Gas,735,708,Natural Gas = 708 MW,Natural Gas Fired Combined Cycle,"EIA-860, EIA-860M and EIA-923",201810,40.70737,-74.12687,Public Service Electric & Gas Co.,Y,https://www13.state.nj.us/DataMiner/SearchSite.aspx?PV=552692,{343B5B04-95EB-459B-9257-6AE2BEB66E20},c(-8251765.58797979, 4969275.36439708)
67,67,58165,College of New Jersey,The College of New Jersey,15874,61008,Ewing,Mercer,New Jersey,2000 Pennington Road,Natural Gas,6.2,4,Natural Gas = 4.2 MW,Natural Gas Internal Combustion Engine,"EIA-860, EIA-860M and EIA-923",201810,40.26959,-74.77326,Public Service Electric & Gas Co.,N,https://www13.state.nj.us/DataMiner/SearchSite.aspx?PV=15874,{F27DD88A-D6AF-4CF7-A5C3-7B46B390133C},c(-8323721.41361335, 4905197.23759504)
68,68,58172,Seaside Heights Power Plant,Seaside Heights Municipal Utility,16912,78722,Seaside Heights,Ocean,New Jersey,Sherman Blvd,Petroleum,6,6,Petroleum = 6 MW,Petroleum Liquids,"EIA-860, EIA-860M and EIA-923",201810,39.94333,-74.07861,Municipal-Seaside Heights,Y,https://www13.state.nj.us/DataMiner/SearchSite.aspx?PV=16912,{07C43425-8C28-4625-8EB4-8E1747A38A17},c(-8246393.30255584, 4857711.73995257)
69,69,58208,Cinnamon Bay Edgeboro Landfill,Cinnamon Bay LLC,35510,17901,East Brunswick,Middlesex,New Jersey,3 Brick Plant Road,Biomass,9.6,9,Biomass = 9.1 MW,Landfill Gas,"EIA-860, EIA-860M and EIA-923",201810,40.46528,-74.39389,Public Service Electric & Gas Co.,Y,https://www13.state.nj.us/DataMiner/SearchSite.aspx?PV=35510,{0CE00CAC-FF24-4235-91DB-97FABCF6E97E},c(-8281490.12636074, 4933788.86127867)
70,70,58235,Clayville,City of Vineland - (NJ),471061,75746,Vineland,Cumberland,New Jersey,4087 S Lincoln Avenue,Natural Gas,73,55,Natural Gas = 55 MW,Natural Gas Fired Combustion Turbine,"EIA-860, EIA-860M and EIA-923",201810,39.42459,-75.01959,Atlantic City Electric,Y,https://www13.state.nj.us/DataMiner/SearchSite.aspx?PV=471061,{CD4B4E53-AA03-42F1-A146-9772571B5F36},c(-8351142.74685427, 4782675.37298811)
71,71,58584,Princeton University Cogeneration,Trustees of Princeton University,14623,61014,Princeton,Mercer,New Jersey,Elm Drive,Natural Gas,20,20,"Natural Gas = 15.5 MW, Solar = 4.5 MW",Natural Gas Fired Combustion Turbine; Solar Photovoltaic;,"EIA-860, EIA-860M and EIA-923",201810,40.34139,-74.65722,Public Service Electric & Gas Co.,N,https://www13.state.nj.us/DataMiner/SearchSite.aspx?PV=14623,{0B5D9EC3-8FB0-4B12-A1ED-4B93BB64EDE4},c(-8310803.89637205, 4915678.06260152)
72,72,58947,Bristol Myers Squibb Lawrenceville,Bristol-Myers Squibb Co,15826,61052,Lawrenceville,Mercer,New Jersey,Route 206 & Province Line road,Natural Gas,5.6,5,"Natural Gas = 4 MW, Petroleum = 0.9 MW",Natural Gas Fired Combustion Turbine; Petroleum Liquids;,"EIA-860, EIA-860M and EIA-923",201810,40.32472,-74.70778,Public Service Electric & Gas Co.,N,https://www13.state.nj.us/DataMiner/SearchSite.aspx?PV=15826,{7B33B163-F630-4132-B5F0-C72658B4B857},c(-8316432.21148198, 4913243.70765629)
73,73,59055,Rariton OMP,Janssen Pharmaceutical Co,83183,35004,Raritan,Somerset,New Jersey,1000 US Highway 202 N,Natural Gas,5.4,5,"Natural Gas = 3 MW, Solar = 2.4 MW",Natural Gas Internal Combustion Engine; Solar Photovoltaic;,"EIA-860, EIA-860M and EIA-923",201810,40.57755,-74.6516,Public Service Electric & Gas Co.,N,https://www13.state.nj.us/DataMiner/SearchSite.aspx?PV=83183,{1BDCE428-F4B4-4E7D-A9BC-ADFFFE21508F},c(-8310178.28224564, 4950229.86712506)
74,74,59116,Woodbine Landfill Plant,Cape May County Municipal,9536,73258,Woodbine,Cape May,New Jersey,2050 Route 610,Biomass,3.2,2,Biomass = 2.1 MW,Landfill Gas,"EIA-860, EIA-860M and EIA-923",201810,39.23587,-74.78441,Atlantic City Electric,Y,https://www13.state.nj.us/DataMiner/SearchSite.aspx?PV=9536,{55F068D4-0489-4621-8500-E848660DF9DB},c(-8324962.61961106, 4755515.60381483)
75,75,59797,Bayonne MUA- Leitner-Poma Wind Turbine,"United Water, Inc.",7625,10616,Bayonne,Hudson,New Jersey,110 Oak Street,Wind,1.5,0,Wind = 0.1 MW,Onshore Wind Turbine,"EIA-860, EIA-860M and EIA-923",201810,40.65284,-74.11768,Public Service Electric & Gas Co.,N,https://www13.state.nj.us/DataMiner/SearchSite.aspx?PV=7625,{EF2CC2C8-381A-47FD-B3E4-F17CDA7BB2A7},c(-8250742.56119708, 4961270.92244741)
76,76,60933,Hopewell Cogeneration NJ,Bristol-Myers Squibb Co,15824,61053,Pennington,Mercer,New Jersey,311 Pennington Rocky Hill Road,Natural Gas,4,4,Natural Gas = 4 MW,Natural Gas Internal Combustion Engine,"EIA-860, EIA-860M and EIA-923",201810,40.34828,-74.7715,Public Service Electric & Gas Co.,N,https://www13.state.nj.us/DataMiner/SearchSite.aspx?PV=15824,{D5FF9F67-1C96-4AE1-A439-553BFB9F13FA},c(-8323525.49184232, 4916684.39874816)
77,77,61822,"Princeton Energy Center, LLC",Princeton Energy Center LLC,601604,18834,Plainsboro,Middlesex,New Jersey,3 Plainsboro Road,Petroleum,10.8,10,"Natural Gas = 4.4 MW, Petroleum = 6 MW,Solar = 0.2 MW",Natural Gas Fired Combustion Turbine; Petroleum Liquids; Solar Photovoltaic,"EIA-860, EIA-860M and EIA-923",201810,40.339838,-74.62393,Public Service Electric & Gas Co.,Y,https://www13.state.nj.us/DataMiner/SearchSite.aspx?PV=601604,{A99597B7-A108-41D5-81FE-D81D452C977D},c(-8307245.86452871, 4915594.1642234)
78,78,,Oyster Creek Generating Station,Exelon Nuclear,,,Lacey Township,Ocean,New Jersey,"741 U.S. 9, Forked River, NJ 08731",Nuclear,,625,Nuclear,Nuclear,,,39.8145,-74.2058,,,,{D2CBDECA-63E8-47F6-AF08-5B21A69BB715},c(-8260997.31037291, 4839152.58073189)
